t_s,mode,wall,x_m,y_m,z_m,nose_x,nose_z,roll_rad,pitch_rad,heading_rad,desired_heading_rad,heading_error_rad,clearance_m,vx_mps,vy_mps,vz_mps,wx_radps,wy_radps,wz_radps,left_effort,right_effort,wp_x,wp_z
0.016,self_right,none,1.702269403401778e-10,0.659738541159777,-6.196895690408459,-3.7248589375017385e-09,-5.776895690408459,1.5726515246687158,-1.0435732919371535e-09,-9.274013994861705e-09,-1.4882974001488507,-1.4882973908748367,4.223104309591541,1.0639183771261113e-08,-0.016341177513939893,0.19401934947131858,0.11572032485355511,-6.575992670216303e-08,-5.795654933586808e-07,0.00042863968918289416,0.021205383963596492,-4.8,-5.8
0.032,self_right,none,-0.0014775421292550737,0.6617639083716981,-6.1905360618056084,-0.001188129174635326,-5.770536161519737,1.5695638746785228,0.00968194487961734,0.0006890785179127848,-1.48958858036486,-1.4902776588827729,4.229463838480263,-0.09234639371762589,0.1265854507450638,0.39747678767816275,-0.19318676518620242,0.6050598611153766,0.04400219853383292,0.0016781514042329632,0.020729694522605438,-4.8,-5.8
0.048,self_right,none,-0.003856430478882953,0.6650736547019164,-6.183213317313753,-0.0031571425580185354,-5.763213899461295,1.5639186284526818,0.019009819720497048,0.0016649720094069087,-1.4910654063398638,-1.4927303783492707,4.236786100538705,-0.14868052185174244,0.20685914563864227,0.45767153074091715,-0.35348236299065916,0.5825808316315645,0.0660548716096259,0.0036939241164022866,0.02022577758107131,-4.8,-5.8
0.064,self_right,none,-0.006601081309557196,0.6688628370345919,-6.175810580992478,-0.0054744363748189485,-5.755812092100922,1.5572196833801943,0.0283846837027317,0.0026824911569450403,-1.4925546863948609,-1.4952371775518059,4.244187907899078,-0.1715406769171402,0.23682389579221882,0.462671020079713,-0.4198454212942744,0.5850221413772229,0.07351583441664207,0.006421346796942946,0.0196956448984983,-4.8,-5.8
0.08,self_right,none,-0.009492328752274824,0.6727996744928108,-6.1685299413960495,-0.007961392171026425,-5.748532731603908,1.550227587243643,0.037842505742096806,0.0036450951700975295,-1.4940183445982909,-1.4976634397683883,4.251467268396092,-0.18070296516985174,0.24605234113867547,0.45503997477677954,-0.43864116494172756,0.5897335690669238,0.07463117577848014,0.00980580841710702,0.01914130823439059,-4.8,-5.8
0.096,self_right,none,-0.012456275227245024,0.6767873804465276,-6.161337787049077,-0.010554015707941022,-5.74134209491793,1.5432016724877529,0.046985013457266994,0.004529204816782307,-1.4954645838630656,-1.4999937886798478,4.25865790508207,-0.18524665468563753,0.249231622107308,0.44950964668577165,-0.44106299049586445,0.5696128778411956,0.07387626514471347,0.013792697948146585,0.018564779348252358,-4.8,-5.8
0.112,self_right,none,-0.015457132974635466,0.6808062359744537,-6.154111622890368,-0.013201392804888213,-5.734117680509901,1.5361486823732964,0.05450993485448218,0.0053708357490099895,-1.496919432960754,-1.5022902687097641,4.265882319490099,-0.18755360921190264,0.25117847049537756,0.45163525991929243,-0.4425720447240638,0.4681248871258959,0.07496268217135717,0.018327404361313727,0.017968069999587794,-4.8,-5.8
0.128,self_right,none,-0.01847939619890794,0.6848308619646521,-6.146838210371321,-0.015880711259588443,-5.7268462499285215,1.529124118907955,0.06050364494761866,0.006187384572900132,-1.498385928773324,-1.5045733133462242,4.2731537500714785,-0.18889145151702977,0.25153912438740555,0.4545882824404324,-0.44047087822165193,0.37206876200825534,0.07626812023721967,0.02335531662786052,0.01735319194790107,-4.8,-5.8
0.144,self_right,none,-0.021511687641480495,0.6888467698399289,-6.139528373467537,-0.018571259324940234,-5.719538666592101,1.5221537908056078,0.06515637017977442,0.007001076994203251,-1.4998620281736397,-1.506863105167843,4.280461333407899,-0.18951821516078465,0.2509942422047939,0.4568648064864768,-0.43669702984242487,0.28792250140217,0.07820957614514704,0.028821823719039064,0.01672215695269638,-4.8,-5.8
0.16,self_right,none,-0.024506853578177806,0.6928230903080115,-6.1323141485434425,-0.021135540885777702,-5.712327679415293,1.5153853145695726,0.06661882951107942,0.008027021182562339,-1.5013209257304387,-1.5093479469130011,4.287672320584707,-0.18719787104358185,0.24852002925516598,0.45088905775592475,-0.42278859109697825,0.08822941338401069,0.09197389541735479,0.03467231460610141,0.016076976773477893,-4.8,-5.8
0.176,self_right,none,-0.02747308630041692,0.6967644907113311,-6.1252214356135575,-0.023536957559639853,-5.705239880196494,1.5089052788883013,0.06417662015830192,0.009371872288184906,-1.5027570192748163,-1.5121288915630011,4.294760119803506,-0.18538954513994466,0.24633752520747207,0.44329455811781276,-0.4027951898272388,-0.1561481763950222,0.11052068363514995,0.040852178260299646,0.015419663169749815,-4.8,-5.8
0.192,self_right,none,-0.03043337741958969,0.7006740753874408,-6.118243440670812,-0.025807208224257402,-5.698268919350083,1.5027730841080564,0.05783018223561497,0.011014911295653943,-1.504171317925712,-1.5151862292213658,4.301731080649917,-0.185018194948298,0.2443490422568538,0.4361246839215861,-0.378489515752307,-0.40053272992949174,0.1260559688369916,0.047306803652885865,0.01475222790101631,-4.8,-5.8
0.208,self_right,none,-0.03338026085953511,0.7045463952411081,-6.111391135506496,-0.027947270749167936,-5.691426276716548,1.49699860625959,0.047740177872865774,0.012936051525508864,-1.505561566910583,-1.5184976184360919,4.308573723283452,-0.1841802149965888,0.2420199908542039,0.4282690727697793,-0.3528302266178316,-0.6349017427769077,0.13911319980911557,0.05398157975511214,0.014076682726781567,-4.8,-5.8
0.224,self_right,none,-0.036302918056682856,0.7083759680396983,-6.104679988630092,-0.02996012390894091,-5.684727885453553,1.491550865201515,0.0342931793211365,0.015102464927636434,-1.5069246013723367,-1.522027066299973,4.315272114546447,-0.18266607482173422,0.23934829991188747,0.41944667977519984,-0.32839067797310645,-0.845137361608818,0.14936285849469652,0.06082189553823053,0.013395039406549769,-4.8,-5.8
0.24,self_right,none,-0.039195042022209574,0.7121578405795225,-6.0981237495338725,-0.03185428717434287,-5.6781879052454105,1.4863913750999627,0.017949240062881757,0.017478877718140343,-1.5082575362291684,-1.5257364139473086,4.3218120947545895,-0.18075774784541984,0.23636703373901324,0.40976494351373255,-0.30568657562721724,-1.0266355896179784,0.15694848160861435,0.06777313997349314,0.012709309699825106,-4.8,-5.8
0.256,self_right,none,-0.04210274929010342,0.7158647715255239,-6.091824377419415,-0.033767247611129314,-5.671907100551983,1.4815832553315984,0.0003420780458162589,0.019847735655039597,-1.509538329209076,-1.5293860648641155,4.328092899448017,-0.18173170424336538,0.23168318412508712,0.3937107571536237,-0.279917681005698,-1.1058933393677037,0.15080210670878144,0.07478070203215206,0.012021505366111743,-4.8,-5.8
0.272,self_right,none,-0.04507459642630401,0.7195115213807707,-6.085743316193741,-0.035830534292474146,-5.665845057903396,1.4770567213327181,-0.016573072503254807,0.022011449142957072,-1.5107743356700747,-1.5327857848130317,4.334154942096604,-0.18574044601253667,0.2279218659529233,0.38006632660460804,-0.26072223306286385,-1.0629119213480274,0.13293614014495872,0.08178997068545933,0.01133363816491388,-4.8,-5.8
0.288,self_right,none,-0.048165665923128285,0.7231120518996234,-6.079791096373322,-0.038051888450160366,-5.6599128860489145,1.4727579043218604,-0.0336427491891868,0.02408275040156104,-1.511983580210723,-1.5360663306122841,4.3400871139510855,-0.19319184355151733,0.22503315742829347,0.37201373877622895,-0.2439440312510743,-1.0727878184399353,0.1227109261354289,0.08874633490466709,0.010647719855735696,-4.8,-5.8
0.304,self_right,none,-0.051358932255599996,0.726653109880314,-6.073958477167727,-0.040414940171307756,-5.654101085858179,1.4686721655074706,-0.05054166478066811,0.026060073595220164,-1.5131682318708382,-1.5392283054660583,4.345898914141821,-0.19957914577948171,0.22131612379316218,0.36453870034967106,-0.2285840281980654,-1.0622719520629886,0.11283689520204944,0.09559518366102734,0.009965762198081372,-4.8,-5.8
0.32,self_right,none,-0.05465190880242287,0.7301304240366654,-6.068226019313401,-0.04289274965623519,-5.648390668043198,1.4647838932542794,-0.06743649914967789,0.028001657139957996,-1.5143324166183503,-1.5423340737583082,4.351609331956802,-0.20581103417642965,0.21733213477196375,0.3582786158953889,-0.2139749088899413,-1.062123874244351,0.10702143021494918,0.10228190592579221,0.009289776951455086,-4.8,-5.8
0.336,self_right,none,-0.058036639999667655,0.7335494594950613,-6.062547277929097,-0.04549293159039368,-5.642734634742469,1.4610495868391582,-0.0837669303832654,0.029870414142762376,-1.5154860106940922,-1.5453564248368545,4.357265365257531,-0.21154569982779914,0.21368971614974708,0.3549213365190042,-0.2031079795955831,-1.0269811785976726,0.09916853130373582,0.10875189067021376,0.008621775875361025,-4.8,-5.8
0.352,self_right,none,-0.06149693857310166,0.7369139387874863,-6.056875157962418,-0.04818658989097269,-5.637086122114696,1.457472305685851,-0.09952861314562932,0.03169661358694243,-1.5166391452525672,-1.5483357588395097,4.362913877885304,-0.21626866083962498,0.2102799557765606,0.3545074979174304,-0.19222264967118577,-0.991511938370978,0.09367488277795957,0.11495052686554412,0.007963770729303382,-4.8,-5.8
0.368,self_right,none,-0.06501653942423133,0.7402178122352323,-6.05120657111133,-0.05094368310438203,-5.631442405519506,1.454056136004629,-0.1148572848866103,0.033513073643918756,-1.51779270304877,-1.5513057766926885,4.368557594480494,-0.2199750531956048,0.20649209048412226,0.354286678192985,-0.18094689454076598,-0.964472287607977,0.09068504952600588,0.12082320348303528,0.007317773272786333,-4.8,-5.8
0.384,self_right,none,-0.06858202927770349,0.7434578324695418,-6.0455464011542555,-0.053742963757754295,-5.625808623328034,1.450798372153989,-0.12984123007787726,0.03533846307476753,-1.5189458424464313,-1.5542843055211988,4.374191376671966,-0.2228431158420096,0.20250126464434468,0.35376062231716743,-0.16974048360960237,-0.9429152942403018,0.089236678871764,0.1263153094939394,0.006685795265314053,-4.8,-5.8
0.4,self_right,none,-0.07218329785330553,0.7466336868779313,-6.039898368378278,-0.05656830451140839,-5.620188740203116,1.4476923581635972,-0.1445641413733752,0.03718712588656345,-1.52009791587584,-1.5572850417624036,4.379811259796884,-0.22507928597512764,0.19849090052434515,0.3530020484985847,-0.15881888596118093,-0.9265658909200433,0.08898959459058772,0.13137223386950853,0.006069848466390728,-4.8,-5.8
0.416,self_right,none,-0.0758106052600292,0.7497466418103637,-6.034263483263121,-0.05940550983043612,-5.614583995029605,1.4447297082528754,-0.15909458505504046,0.03906968985815694,-1.5212488319173114,-1.5603185217754683,4.385416004970395,-0.22670671292022931,0.1945596832770253,0.35218031969728086,-0.14828881054950754,-0.9144862144145102,0.08965381502831474,0.1359393655809948,0.005471944635520558,-4.8,-5.8
0.432,self_right,none,-0.07945344232340332,0.7527987812664335,-6.028639804458254,-0.06224032814824264,-5.608992680435709,1.4419014318897696,-0.1734904754013596,0.04099508691848573,-1.5223991210379737,-1.5633942079564593,4.391007319564291,-0.22767731646088296,0.190758716004365,0.3514799253042044,-0.13818393088976483,-0.9060151446147938,0.09107676920331943,0.13996209359965014,0.004894095532207707,-4.8,-5.8
0.448,self_right,none,-0.0830999505951035,0.7557926174102461,-6.023022762994088,-0.06505753278539758,-5.603410476282199,1.4391984003500555,-0.18779929082520547,0.042971361128874834,-1.5235498746482652,-1.56652123577714,4.396589523717801,-0.22790676698126186,0.18711475898828434,0.3510650915103954,-0.1285131857648635,-0.9005037511726315,0.09316401948165162,0.14338580689672678,0.0043383129159563615,-4.8,-5.8
0.464,self_right,none,-0.08673690352260503,0.7587308813041479,-6.017405739282811,-0.06784067202963608,-5.597831035046052,1.4366115237274093,-0.20205925994936996,0.04500621962372812,-1.5247026239515,-1.5697088435752282,4.402168964953948,-0.22730955796884586,0.18364149336886648,0.35106398195477345,-0.11927555780274986,-0.8973765809348632,0.09586094750279218,0.14615589444347676,0.00380660854627071,-4.8,-5.8
0.48,self_right,none,-0.09034997575977742,0.7616163765806157,-6.01178078948801,-0.07057221784558707,-5.592246714242759,1.4341318096640523,-0.21630065955211364,0.04710732050236473,-1.5258591836423325,-1.5729665041446972,4.407753285757241,-0.22581701482327451,0.18034345477923586,0.3515593621750523,-0.1104661843241206,-0.8961389754932796,0.09913474525171805,0.1482177452111521,0.0033009941826549253,-4.8,-5.8
0.496,self_right,none,-0.09393217517545356,0.764469802641722,-6.006078301129007,-0.07327643093456765,-5.5865865369311205,1.4317045883608321,-0.22991196489127022,0.04920019050695376,-1.5270343714050836,-1.5762345619120373,4.4134134630688795,-0.22388746347975907,0.17833912881914774,0.3564055224377327,-0.1068239063840118,-0.8568551683947132,0.0972381641531589,0.14951674817100497,0.0028234815846132086,-4.8,-5.8
0.512,self_right,none,-0.09747047215644758,0.7673099183361987,-6.00021551512288,-0.07596118231917595,-5.580766650002594,1.429328127932684,-0.2425389600754027,0.05123500744643619,-1.528245893743693,-1.5794809011901292,4.419233349997406,-0.22114356131212634,0.17750723090478848,0.3664241253828765,-0.10460984377464323,-0.7954516947514614,0.09241449588710594,0.14999829229428738,0.002376082511649728,-4.8,-5.8
0.528,self_right,none,-0.10094729984264429,0.7701422812428316,-5.994152032284616,-0.07861386605695765,-5.574746241033064,1.4270080720574143,-0.25410604408956206,0.05319993349647619,-1.529502543213194,-1.58270247670967,4.425253758966936,-0.21730173038729425,0.17702268166455848,0.3789676773915329,-0.1026330077493839,-0.7293018136391359,0.08716857468899898,0.02397715221254023,0.0019608087232686673,-4.8,-5.8
0.544,self_right,none,-0.10434849366646222,0.7729752385461508,-5.987850348698683,-0.08123478285836594,-5.568486835296909,1.4247294987749275,-0.26436783299913236,0.05506046127926284,-1.5308124753954957,-1.5858729366747586,4.431513164703091,-0.21257461398862085,0.17705983145745463,0.39385522412080276,-0.1027521697416512,-0.6478757493916592,0.07977647367400297,0.023903673220545648,0.0015796719789742174,-4.8,-5.8
0.56,self_right,none,-0.10765671434688356,0.7757934027740199,-5.981357682529153,-0.08378281230193485,-5.56203675912901,1.4225432716383821,-0.27384168167694556,0.056873279057463116,-1.5321658497965587,-1.5890391288540218,4.43796324087099,-0.20676379252633442,0.1761352642418202,0.4057916355956184,-0.09839495291138062,-0.5985612307136848,0.07697263887011545,0.023781471928059128,0.0012346840382705543,-4.8,-5.8
0.576,self_right,none,-0.11087183042259334,0.7786012363322367,-5.974680545966637,-0.08626303358347698,-5.555402109700077,1.420410418600349,-0.2823953769837412,0.058625950574730586,-1.5335613006365139,-1.5921872512112445,4.444597890299923,-0.20094475473186116,0.17548959738855022,0.41732103515731606,-0.09711218980122094,-0.5411164249851549,0.07294361032300173,0.023612560094584862,0.0009278566606618615,-4.8,-5.8
0.592,self_right,none,-0.11399490406193173,0.781401567607124,-5.9678255441344445,-0.0886774978363278,-5.548589299348754,1.4183331383387818,-0.2900557162952687,0.06031610397052509,-1.5349974231114838,-1.595313527082009,4.451410700651246,-0.19519210245864943,0.17502070468045977,0.4284376145119754,-0.09587246611847404,-0.48532987941445666,0.06897896979417256,0.023398949479627028,0.0006612016056523302,-4.8,-5.8
0.608,self_right,none,-0.11702920275753734,0.7841946851761383,-5.960807961891143,-0.09102722453090777,-5.54161361898048,1.416307987097772,-0.2968850160663801,0.06194908792637326,-1.5364709364594302,-1.5984200243858036,4.45838638101952,-0.18964366847535014,0.17456984806339818,0.4385988902063693,-0.09485773591718817,-0.43343789180616965,0.06544705601294312,0.02314265184268981,0.0004367306327461362,-4.8,-5.8
0.624,self_right,none,-0.11997922269339589,0.7869810116404533,-5.953643006916296,-0.0933142594001232,-5.534490314293944,1.4143306118938799,-0.30294278424044074,0.06353073586053871,-1.5379785569352968,-1.6015092927958356,4.465509685706056,-0.18437624599115965,0.17414540401968684,0.4478096859279153,-0.09409911487676685,-0.3852696164313097,0.06234084276982924,0.022845678943277388,0.0002564555014474603,-4.8,-5.8
0.64,self_right,none,-0.12285007883437839,0.7897609480317745,-5.946345177988299,-0.09554121820803642,-5.527233944386417,1.4123968349747802,-0.30828522196858293,0.06506699952711621,-1.5395171397028262,-1.6045841392299425,4.472766055613583,-0.17942850881140598,0.17374602445757484,0.45611430799987973,-0.09356811262484802,-0.34061923108476155,0.05965181570167776,0.022510042540893956,0.0001223879712604914,-4.8,-5.8
0.656,self_right,none,-0.12564711996565106,0.7925347415296382,-5.938928187392373,-0.0977109667908583,-5.519858299013603,1.4105030209648557,-0.3129653783635389,0.06656379399047344,-1.5410837003083169,-1.6076474942987904,4.480141700986397,-0.17481507070454155,0.17336209361648222,0.4635619122453192,-0.09321737811558486,-0.29928901376166717,0.057371301501886025,0.022137754395043677,3.6539801689407625e-05,-4.8,-5.8
0.672,self_right,none,-0.12837572458840715,0.7953024366509992,-5.93140496616052,-0.09982645329259679,-5.512376400179061,1.4086461986895165,-0.31703343569877346,0.06802691090341395,-1.5426754166206968,-1.6107023275241108,4.487623599820939,-0.1705377889222554,0.17298094508506057,0.47020132699080386,-0.0929945777740898,-0.2610983193640914,0.05549015960181691,0.021730826265230752,9.227522384005483e-07,-4.8,-5.8
0.688,self_right,none,-0.13104119445787685,0.7980638692116799,-5.923787701322693,-0.10189062834561523,-5.504800536250379,1.406824075538475,-0.32053698240910283,0.06946195487927195,-1.544289622876836,-1.6137515777561078,4.495199463749621,-0.16659186684185565,0.17258953504254337,0.4760790523642024,-0.09284844824109773,-0.2258832216497095,0.053997847000914964,0.021291269910959358,0.00028409578893551213,-4.8,-5.8
0.704,self_right,none,-0.13366879121115352,0.8008323345705146,-5.916044832543669,-0.10395825546407914,-5.497097002777692,1.4050100352234127,-0.32314366538862227,0.07079850140114635,-1.5459329140174551,-1.6167314154186014,4.502902997222308,-0.16422479707979287,0.17302908492716462,0.4839292986889956,-0.09587578065282538,-0.1700540765627206,0.04767134544343957,0.020821097091733676,0.001383853823590917,-4.8,-5.8
0.72,self_right,none,-0.13628030154333162,0.8035704603303389,-5.908292571278478,-0.10610240935820006,-5.489378147054076,1.4033875833215301,-0.3244063633961773,0.07191409382068976,-1.547580284328887,-1.6194943781495768,4.510621852945924,-0.16321939576113143,0.17113285998901484,0.4845163290744167,-0.09026328544166992,-0.08557178770712744,0.037463306953515456,0.020322319567057896,0.0032601124232558,-4.8,-5.8
0.736,self_right,none,-0.1388393657598234,0.8062741124153907,-5.900565781657571,-0.10827496044214854,-5.481679380436933,1.4019257735296582,-0.32445893417629756,0.07283677876771533,-1.5492244073285444,-1.6220611860962597,4.518320619563067,-0.15994151353073477,0.16897825531574392,0.48292435130670397,-0.0861325706704221,-0.009539088110088481,0.02854388679557903,0.01979694909643619,0.005858260559182243,-4.8,-5.8
0.752,self_right,none,-0.14133850435505466,0.8089482254613101,-5.89286522326908,-0.11046501286402831,-5.474001489432939,1.4006099447678797,-0.32334246600568955,0.07357467458269125,-1.5508650813102987,-1.62443975589299,4.525998510567061,-0.1561961622019543,0.16713206536995928,0.4812848992806973,-0.08285784207043576,0.06389013469119456,0.01994443969490574,0.019246997439372752,0.009123687202622395,-4.8,-5.8
0.768,self_right,none,-0.14377982072515305,0.8115958200547603,-5.885192687082896,-0.11267434499717235,-5.466346116869249,1.3994303560483852,-0.32107985723421495,0.07412852769850636,-1.5525018348560775,-1.626630362554584,4.533653883130751,-0.1525822731311492,0.16547466209063624,0.47953351163649294,-0.08017379160553469,0.13586787184445964,0.01126992043585472,0.018674476355371762,0.01300178132482821,-4.8,-5.8
0.784,self_right,none,-0.14616924765122322,0.8142184723751608,-5.877551920767515,-0.11490909330435317,-5.458716866420091,1.398379150500823,-0.31769838529583583,0.0744978293820963,-1.554133764797206,-1.6286315941793024,4.541283133579909,-0.14933918287938597,0.1639157700250337,0.4775478947113294,-0.07789670253247803,0.20612767251596126,0.0024522932923403094,0.0180813976039374,0.017437931897051912,-4.8,-5.8
0.8,self_right,none,-0.14851333103831968,0.8168168059002097,-5.869948497447169,-0.11717550012734967,-5.451119247807419,1.3974491852855317,-0.3132338774813645,0.0746832892698045,-1.5557595803795927,-1.6304428696493973,4.548880752192581,-0.14650521169352942,0.16239584531555307,0.4752139575216325,-0.07589494658521975,0.27413866700221634,-0.006441969812036883,0.017469772944573848,0.02237752789054542,-4.8,-5.8
0.816,self_right,none,-0.15081685290141178,0.8193894236769318,-5.862393825833962,-0.11947398277146581,-5.443564953271411,1.3966355754970317,-0.30777599955718565,0.07469532095395423,-1.5573767478246678,-1.632072068778622,4.556435046728589,-0.1439701164432569,0.16078861104513276,0.47216697582540906,-0.07373829974995529,0.33655416966382934,-0.014784947281649434,0.01684161413678529,0.027765958276560882,-4.8,-5.8
0.832,self_right,none,-0.15307934147422625,0.8219280653363453,-5.854920914652307,-0.12178386090294879,-5.43608849840947,1.3959418338889684,-0.30163272268452845,0.07458217364906795,-1.558978100980222,-1.6335602746292899,4.56391150159053,-0.14140553580090504,0.15866510371334755,0.4670569488534402,-0.06987798824520362,0.37980268918078913,-0.02007990794493085,0.016198932940075916,0.0335486120263504,-4.8,-5.8
0.848,self_right,none,-0.15530305782202206,0.8244316448973337,-5.847543465521427,-0.12410337384652692,-5.428703902299626,1.395354552770162,-0.2948605321080848,0.07435345262768214,-1.5605606094323188,-1.634914062060001,4.571296097700374,-0.1389822717372379,0.15647372256176847,0.4610905706799977,-0.0664780109048117,0.41948020465432906,-0.025080716271458504,0.015543741113949896,0.039670878111166145,-4.8,-5.8
0.864,self_right,none,-0.1574880216471559,0.8268995576324787,-5.840271201476721,-0.12642831040845495,-5.421421235095239,1.394864810348511,-0.2875099607283839,0.07401926500674388,-1.5621221022310094,-1.6361413672377534,4.578578764904761,-0.13656023907086448,0.15424454594656628,0.45451650279409683,-0.0632908575676213,0.45597596189264034,-0.029674227887108363,0.014878050417911425,0.0460781455022601,-4.8,-5.8
0.88,self_right,none,-0.15963212881634395,0.8293311597614018,-5.833112819451944,-0.12875205389163707,-5.414249570917718,1.3944646092601602,-0.27962988184117266,0.07359039195557988,-1.5636606301530471,-1.637251022108627,4.585750429082282,-0.134006698074254,0.15197513305769852,0.4473988765485664,-0.06026488868295523,0.48939599580074783,-0.03380275658251304,0.014203872611464682,0.05271580317088425,-4.8,-5.8
0.896,self_right,none,-0.16173191351869687,0.8317260014678513,-5.826075770678183,-0.13106643618802274,-5.407196756522446,1.3941462328472252,-0.27126780274780193,0.07307806829973426,-1.5651745094517302,-1.6382525777514645,4.592803243477554,-0.13123654389705744,0.14967760665308832,0.43981554836009223,-0.057389662904445124,0.5198253165754002,-0.03743225585239551,0.013523219454113854,0.05952924008829073,-4.8,-5.8
0.912,self_right,none,-0.16378318933239883,0.8340839591443532,-5.819166044235524,-0.13336249284293872,-5.4002691819590245,1.3939020572544125,-0.262470296843749,0.07249370954428548,-1.5666623667499033,-1.6391560762941888,4.5997308180409755,-0.12820473835637242,0.14737235478137323,0.43185790266621515,-0.05466774747479325,0.5473213213831764,-0.04054697410672508,0.01283810270536311,0.06646384522573168,-4.8,-5.8
0.928,self_right,none,-0.16578277724388596,0.836407295405721,-5.812381951742037,-0.13562603012298433,-5.393466004799114,1.3937146515273173,-0.2533607076670339,0.07186361805625552,-1.5681244791703928,-1.6399880972266483,4.606533995200886,-0.12497424446794561,0.14520851633548754,0.4240057808428882,-0.05235555650579026,0.5670540862024781,-0.04236829725940265,0.01215053412471665,0.07346500755445927,-4.8,-5.8
0.944,self_right,none,-0.167730409795503,0.8387104524384248,-5.805683256664486,-0.13781186825283873,-5.386750229950239,1.3935206341247321,-0.24444978559792185,0.07129500586167456,-1.5695694435787417,-1.6408644494404163,4.613249770049761,-0.12172703447606399,0.14394731454398596,0.4186684423469238,-0.05155350341474266,0.554669672520997,-0.038525470956828366,0.011462525471678649,0.08047811604572548,-4.8,-5.8
0.96,self_right,none,-0.16962960081372402,0.8410016757652604,-5.79904371073487,-0.13992510110540132,-5.380095452954654,1.3933250282358887,-0.23574973624675322,0.07078409379418578,-1.5710028522278732,-1.6417869460220589,4.619904547045346,-0.11869943863881394,0.1432014579272245,0.41497162060101517,-0.050440573338521914,0.5415421763005828,-0.03483921937315212,0.010776088505753293,0.08744855967078224,-4.8,-5.8
0.976,self_right,none,-0.17147303829032273,0.8432795529005231,-5.792466648968396,-0.14196543082662932,-5.373504477523564,1.393134092186059,-0.2271888576189543,0.07031413367878883,-1.572423916834201,-1.6427380505129898,4.626495522476436,-0.11521484228741961,0.14236732095392252,0.41106636040469174,-0.0493030306633637,0.5329084390457156,-0.03211017268054583,0.010093234986444757,0.09432172740088175,-4.8,-5.8
0.992,self_right,none,-0.17325810205986938,0.8455429046388424,-5.785954658958468,-0.14393346295219095,-5.36697964115764,1.3929528224409267,-0.21872655070306046,0.06987742229885409,-1.5738320046449106,-1.6437094269437647,4.63302035884236,-0.11156648559666549,0.1414594836449537,0.4069993756205242,-0.048065017083183,0.5268246820743043,-0.029799576381529004,0.009415976673257229,0.1010430082072761,-4.8,-5.8
1.008,self_right,none,-0.1749842579293495,0.8477907774392386,-5.77951004735829,-0.14583190282083563,-5.360523006757239,1.3927852437246904,-0.21031863375558466,0.06946622469149316,-1.57522654276245,-1.6446927674539433,4.639476993242761,-0.10788474184250729,0.1404920500247586,0.4027882250110869,-0.04679164145972679,0.5235105848206483,-0.02792951579881044,0.008746325325694906,0.1075577910612174,-4.8,-5.8
1.024,self_right,none,-0.17665353613404255,0.8500225760845604,-5.773134245440608,-0.1476656709237025,-5.354135792375985,1.392634169013834,-0.2019264582683794,0.06907364057803406,-1.5766071507053632,-1.6456807912833973,4.645864207624015,-0.10432988779331571,0.1394874153326149,0.39848761985509584,-0.045524216850666634,0.5226164600543728,-0.026469016235340287,0.008086292703261956,0.1138114649339577,-4.8,-5.8
1.04,self_right,none,-0.1782703448329522,0.8522380521856376,-5.7668277296290915,-0.14944210864049062,-5.347818263389924,1.3925014319413844,-0.1935148352379169,0.0686926680066045,-1.577973661522443,-1.6466663295290473,4.652181736610076,-0.10105054368185264,0.1384672563173225,0.39415723821981,-0.0443004927717279,0.5239228916307569,-0.02544043756753913,0.007437890565462559,0.1197494187967492,-4.8,-5.8
1.056,self_right,none,-0.1798414933415687,0.8544372996948317,-5.760589932773612,-0.151171051416818,-5.341569639995518,1.3923879314667664,-0.18505294535584818,0.06831608408664656,-1.5793261448451676,-1.6476422289318142,4.658430360004482,-0.0981967817885323,0.137452969324634,0.38986230346749523,-0.04315246726567103,0.5271539058865011,-0.024871241811591532,0.006803130671800901,0.12531704162084387,-4.8,-5.8
1.072,self_right,none,-0.18137613386136706,0.856620728794035,-5.7544192523969295,-0.15286481784737313,-5.335388102171615,1.3922936882389978,-0.17651462559273928,0.06793633196003676,-1.5806649086989575,-1.6486012406589943,4.664611897828385,-0.09591503248739722,0.13646431870020223,0.3856675235426147,-0.042108136902603656,0.532015901927914,-0.024793579936382478,0.00618402478178117,0.13045972237749368,-4.8,-5.8
1.088,self_right,none,-0.18288564100147656,0.8587890260045347,-5.748313124930501,-0.15453809235256843,-5.329270863952449,1.3922178894613444,-0.1678787561006838,0.06754551330188084,-1.5819904866284074,-1.649535999930288,4.670729136047551,-0.09434419625684337,0.13551857565623027,0.3816329666517711,-0.04119158076547373,0.5381913494612295,-0.02523791719784377,0.005582584654907552,0.1351228500379508,-4.8,-5.8
1.104,self_right,none,-0.18438339343282387,0.8609430976331239,-5.74226817287149,-0.15620769866630474,-5.3232143216489725,1.3921589459173753,-0.15912944545505017,0.06713540787965395,-1.5833036084102687,-1.6504390162899227,4.6767856783510275,-0.09360952695920756,0.13462947678683118,0.37780950368821703,-0.040422958354348594,0.545351417596814,-0.02623125923969132,0.005000822050684215,0.13925181357346733,-4.8,-5.8
1.12,cruise,none,-0.1858844476853222,0.863083996129622,-5.736280425087987,-0.15789226272442647,-5.317214275678237,1.392114567313519,-0.15025594835998257,0.06669749969812287,-1.584605154086523,-1.6513026537846458,4.682785724321763,-0.09381589078114526,0.13380615603113483,0.37423423646893345,-0.039818424686597874,0.5531727411271208,-0.027796622182623406,0.02960499152410236,0.9519466797019693,-4.8,-5.8
1.136,self_right,none,-0.1881040373894844,0.8628957567390327,-5.7303966741323515,-0.1604087320638703,-5.311310799802375,1.3965293225983058,-0.13664043092424255,0.06598908496080297,-1.5858873094586892,-1.651876394419492,4.688689200197625,-0.13872435651013781,-0.011764961911829658,0.36773443472718387,0.21607856189407723,0.8672155894668114,-0.0048300078258999846,0.003904376448205151,0.14568880415468702,-4.8,-5.8
1.152,self_right,none,-0.19009384897175224,0.863740141398953,-5.724427535431322,-0.16253357978741198,-5.305332759082956,1.3984520013311297,-0.1269451611052448,0.06566687246401905,-1.5871883515425662,-1.6528552240065852,4.694667240917044,-0.12436322389174033,0.052774041245022135,0.37307116881435415,0.07900847676854106,0.6124828825866853,-0.004346697501228008,0.0033937169689577935,0.14788760914289426,-4.8,-5.8
1.168,self_right,none,-0.192026181378077,0.8651512524566426,-5.718509458975468,-0.16455262115343353,-5.299408989530989,1.3994136254048737,-0.11829795394771374,0.06545997804455604,-1.5884791632201554,-1.6539391412647113,4.700591010469011,-0.12077077539529804,0.08819444110559782,0.3698797784908702,0.024114004816180507,0.5432007520497385,-0.005579546591819356,0.0029107820503774507,0.1493338058911692,-4.8,-5.8
1.184,self_right,none,-0.19387817879553618,0.8668822665820917,-5.71267834747962,-0.1665869156976431,-5.293565967611736,1.399858370599787,-0.1089496176159868,0.06502501185661026,-1.5897517945727158,-1.654776806429326,4.706434032388264,-0.11574983859119785,0.10818838284056667,0.36444446849052026,-0.010533659192084183,0.584832784884332,-0.024033792043879797,0.0024575834519683175,0.14997278337076397,-4.8,-5.8
1.2,self_right,none,-0.19575976458595104,0.868819654896023,-5.706841987292443,-0.1686511164416924,-5.287717756072402,1.3998972058088544,-0.10023979990502753,0.06458929967623118,-1.5910266577044303,-1.6556159573806615,4.712282243927598,-0.11759911190092867,0.12108676962070668,0.36477251169850855,-0.032845299812459657,0.5433806313643514,-0.026978599596184673,0.0020361329332345716,0.02398534205306571,-4.8,-5.8
1.216,self_right,none,-0.19775627346160218,0.8709747902965623,-5.700703038352031,-0.1706871344861653,-5.2815762535778665,1.3993850708993487,-0.09431460132903326,0.06449503395381952,-1.5923687518574101,-1.6568637858112296,4.7184237464221335,-0.1247818047281957,0.13469596253370988,0.3836843087757943,-0.05567596669894753,0.36750022266992405,-0.009000403612204885,0.0016484422536804048,0.023921222457826918,-4.8,-5.8
1.232,self_right,none,-0.19982512737538205,0.8732306229610084,-5.694430086297079,-0.1728074271356398,-5.275299982541986,1.3988059260836623,-0.08848193591208361,0.06437230609715897,-1.5937414080740668,-1.6581137141712259,4.724700017458014,-0.12930336961124106,0.1409895415278797,0.39205950343447754,-0.05944339408276323,0.36146520458887216,-0.010974203160493136,0.001296523172809982,0.02380800335718915,-4.8,-5.8
1.248,self_right,none,-0.20195511729765572,0.8755225968798128,-5.6881291980989666,-0.17504723488929508,-5.268992029782558,1.3981766763211303,-0.08233022652073442,0.06411029460175134,-1.5951216081943653,-1.6592319027961167,4.731007970217442,-0.13312437014210507,0.14324836992527734,0.3938055123820526,-0.06378682749007378,0.3811743956893387,-0.019730512500517022,0.000982387450127508,0.023647696510656603,-4.8,-5.8
1.264,self_right,none,-0.20419632848044436,0.8778625504360592,-5.681711766202595,-0.17739263218831047,-5.26256792231952,1.3974034072400099,-0.07684611132692376,0.06386172374263827,-1.5965289586020055,-1.6603906823446437,4.73743207768048,-0.1400756989242893,0.14624709726540247,0.4010894935232662,-0.06999468615288248,0.33897612035821345,-0.019378075924109225,0.00070804684513715,0.02344231367773346,-4.8,-5.8
1.28,self_right,none,-0.20655454935996706,0.8802453332477839,-5.675156157928676,-0.17983393021932012,-5.256007009638069,1.3965197390031736,-0.0721153408801715,0.06366351821786206,-1.5979683302704946,-1.6616318484883565,4.743992990361931,-0.14738880497016876,0.14892392573279048,0.40972551711991,-0.0738045398581017,0.29156342386299494,-0.01649757075184707,0.0004755131173430973,0.02319386661792389,-4.8,-5.8
1.296,self_right,none,-0.20901734811583741,0.8826592596617796,-5.668478351107365,-0.18236192648030786,-5.2493250515886425,1.3955451801159782,-0.0680510452651961,0.06350797171992138,-1.599436314512917,-1.6629442862328383,4.7506749484113575,-0.1539249222418969,0.15087040087473425,0.4173629263319127,-0.07677884193388944,0.24964458116793287,-0.013986934149121118,0.00028679802624953065,0.022904367090732083,-4.8,-5.8
1.312,self_right,none,-0.21157670538281587,0.8850954155225534,-5.661695389285921,-0.18497177669835674,-5.242538881797733,1.3944951004818054,-0.06458002369861646,0.06338750801882348,-1.6009292808274715,-1.664316788846295,4.757461118202267,-0.15995982918615365,0.1522597412983668,0.42393511384023236,-0.07910911698726206,0.21235041605475144,-0.011878085970049645,0.0001439133313606362,0.022575826855662222,-4.8,-5.8
1.328,self_right,none,-0.21422713963556927,0.8875467708081602,-5.6548240047725935,-0.1876619306729371,-5.235664978062239,1.3933827669622378,-0.06163032277224117,0.06329274722726731,-1.6024436693904092,-1.6657364166176765,4.764335021937761,-0.1656521407970883,0.1532097053504228,0.42946153208297166,-0.08091276874613414,0.1795949877833652,-0.010306768478494318,4.88707921805922e-05,0.0222102576722185,-4.8,-5.8
1.344,self_right,none,-0.21696460269372836,0.8900075000897067,-5.647880116065674,-0.19043318880814344,-5.2287189488790755,1.392220561243851,-0.05912735187830733,0.0632121215253578,-1.603976096069017,-1.6671882175943749,4.7712810511209245,-0.17109144113494332,0.15379558009665695,0.43399304418245155,-0.08224891005012591,0.15153983202234375,-0.009422235363935109,3.6821682135874668e-06,0.02180967129990509,-4.8,-5.8
1.36,self_right,none,-0.21978564805240522,0.8924725664960137,-5.640878623919288,-0.19328788504941072,-5.2217153281074555,1.3910205573571632,-0.05699182352194549,0.06313184024034794,-1.605523392726898,-1.668655232967246,4.7782846718925445,-0.17631533491730378,0.15406665039418768,0.43759325914913616,-0.08315056416485335,0.12847755284782728,-0.009369620492970007,0.00016877065565613466,0.021376079498226182,-4.8,-5.8
1.376,self_right,none,-0.2227683467976182,0.8950088735976379,-5.633620510715453,-0.1965969163919371,-5.214436713043691,1.389600600329687,-0.05196812676409098,0.06235332598684154,-1.607129700794589,-1.6694830267814307,4.785563286956309,-0.1864186715758112,0.15851919385151605,0.45363207523968924,-0.10812868073978413,0.3078075776156828,-0.05348972024750888,0.0011168550909374663,0.02091149402668594,-4.8,-5.8
1.392,self_right,none,-0.2257660539652312,0.8974486411176998,-5.626585314782065,-0.19985262402278714,-5.207385488746058,1.388352240752197,-0.04798085050273166,0.06173785486408341,-1.608689376917817,-1.6704272317819004,4.792614511253942,-0.1873566979758118,0.15248547000387322,0.43969974583674565,-0.09322744968523523,0.2438937720003821,-0.04236446548583885,0.0028516796591184996,0.020417926644788573,-4.8,-5.8
1.408,self_right,none,-0.22881337418967665,0.8998608915081469,-5.619603847875202,-0.2030178720060076,-5.20039674861865,1.3871802667292477,-0.04589631361614922,0.06145654097117603,-1.6102396060573816,-1.6716961470285576,4.79960325138135,-0.19045751402784067,0.1507656494029365,0.4363416816789438,-0.08104901674801425,0.12553244172526987,-0.021019033315894296,0.005318633331451379,0.019897389112038238,-4.8,-5.8
1.424,self_right,none,-0.23190637159164496,0.9022564104058964,-5.612655094291262,-0.20608768173473002,-5.193449422509412,1.3860567398693895,-0.04570190816414084,0.06151185423462084,-1.6117849736397074,-1.6732968278743283,4.806550577490588,-0.1933123376230196,0.1497199311093474,0.43429709899622,-0.07076084048314693,0.00781717892674326,0.00024216959505420077,0.008463105079188092,0.019351893187939142,-4.8,-5.8
1.44,self_right,none,-0.23503607384665104,0.9046366966485238,-5.605733115841095,-0.20905831366864694,-5.186537271424509,1.3849762499276084,-0.047299456703844604,0.06189131518765374,-1.6133267259252233,-1.675218041112877,4.813462728575491,-0.19560639093788085,0.1487678901642065,0.4326236531354306,-0.06117248664844218,-0.10381640746006093,0.020577220033411038,0.012230483873580758,0.01878345063199546,-4.8,-5.8
1.456,self_right,none,-0.23819300378378486,0.9070001000397776,-5.59883604601859,-0.21192661635240878,-5.179658187715811,1.3839399753097972,-0.050575961049844555,0.06257985596853195,-1.6148652040468527,-1.6774450600153847,4.820341812284189,-0.19730812107086415,0.14771271195336813,0.43106686390652976,-0.051827995383319586,-0.20840866003844685,0.03986550400100692,0.016566158685881543,0.01819407320371137,-4.8,-5.8
1.472,self_right,none,-0.24136843981369835,0.909343426181535,-5.591964550534207,-0.2146908133927977,-5.172812663685839,1.3829512795350154,-0.05541445551808977,0.06356094714158644,-1.6164001903131289,-1.6799611374547152,4.827187336314161,-0.19846475186959323,0.14645788385983416,0.42946846777396175,-0.04252397600107997,-0.30569455915418675,0.05804496662664603,0.02141551848734237,0.017585772662591058,-4.8,-5.8
1.488,self_right,none,-0.24455496687146502,0.9116626335372774,-5.5851212403289185,-0.21735113081840546,-5.166003176647576,1.3820143025602205,-0.06169607947707083,0.06481641278892122,-1.6179310422443929,-1.6827474550333141,4.833996823352424,-0.19915794111041787,0.14495045973390272,0.4277068878305306,-0.03315724666050885,-0.3955442961041514,0.07503949544234763,0.026723952249215383,0.016960560768138712,-4.8,-5.8
1.504,self_right,none,-0.24774211535374066,0.9139463150996532,-5.578330325730132,-0.2199208066921231,-5.159252797360553,1.3811565137328436,-0.06908951641749898,0.06628975028369447,-1.6194523398716674,-1.685742090155362,4.840747202639447,-0.1991967801422278,0.1427300976484865,0.4244321624241377,-0.02311282664867744,-0.4646039538199576,0.08858025646054474,0.032436848942752804,0.016320449279858498,-4.8,-5.8
1.52,self_right,none,-0.2509253900017996,0.9161874462516413,-5.57160415575896,-0.22241162700492006,-5.152573172036088,1.380389494826963,-0.07738704401578077,0.06794217158167454,-1.6209613040066162,-1.6889034755882908,4.847426827963912,-0.1989546655036821,0.14007069699925812,0.4203856231982241,-0.01292283879265702,-0.5206374722529378,0.09976851320614832,0.03849959753920645,0.015667449957254623,-4.8,-5.8
1.536,self_right,none,-0.2541025410494794,0.9183808289129091,-5.564951176840572,-0.22483191828908405,-5.145972381860183,1.379714563930923,-0.08647866372663933,0.06974849789661527,-1.6224560253594784,-1.6922045232560936,4.854027618139817,-0.19857194047998553,0.1370864163292379,0.4158111823992683,-0.0028534166286779405,-0.5697763985286184,0.10944306404066875,0.044857587009828545,0.015003574559831256,-4.8,-5.8
1.552,self_right,none,-0.25727293369055015,0.9205213868984397,-5.558380407676741,-0.22719156457380146,-5.139459041270035,1.379134105286534,-0.09626349803575597,0.07168368335354285,-1.623934481147506,-1.6956181645010489,4.860540958729965,-0.1981495400669251,0.13378487409566137,0.4106730727394416,0.0071734204681894,-0.6125814907225775,0.1176388756890612,0.051456206325871286,0.014330834847092577,-4.8,-5.8
1.568,self_right,none,-0.26043784612198323,0.9226047178476928,-5.551899573793691,-0.2295014960834837,-5.133040477860112,1.3786502296356475,-0.10665433360739328,0.07372474461808114,-1.6253949508179972,-1.6991196954360783,4.866959522139888,-0.19780702696456595,0.13020818432832418,0.4050521176906229,0.01716731400820604,-0.6499032578741649,0.12450324662372819,0.0582408444585865,0.013651242578542782,-4.8,-5.8
1.584,self_right,none,-0.26359978376040816,0.9246271576837315,-5.545514795899556,-0.23177285176779175,-5.1267224292070175,1.3782643291328123,-0.11757611935064133,0.07585112213495983,-1.6268360800141843,-1.7026872021491442,4.8732775707929825,-0.19762110240155803,0.1264024897524164,0.39904861838346417,0.027103340291005674,-0.6825014569151054,0.1302001803946065,0.06515689037922652,0.012966809513686034,-4.8,-5.8
1.6,self_right,none,-0.26676084217237,0.9265857311645036,-5.539230680117545,-0.2340137888657463,-5.120509256615316,1.377976987290046,-0.12897562896198364,0.07804838970138155,-1.628256842918652,-1.7063052326200334,4.879490743384684,-0.19756615074761638,0.12241084254825506,0.39275723637565213,0.03700074178085562,-0.7117392520639148,0.13512094798702587,0.07214973305904317,0.012279547412026545,-4.8,-5.8
1.616,self_right,none,-0.26993468071155924,0.9284882822818117,-5.5330206219102545,-0.23628101485145622,-5.114371089754567,1.377771360358666,-0.14039939767130602,0.08021376740669896,-1.629663230260978,-1.7098769976676769,4.885628910245433,-0.1983649086993277,0.1189094448317559,0.38812863795569574,0.04374449507552118,-0.7127661889592586,0.133610396792002,0.07916476146928868,0.011591468033068476,-4.8,-5.8
1.632,self_right,none,-0.2731304599363809,0.9303449017106988,-5.526846675169911,-0.23859975957159116,-5.108268569277692,1.3776478146402873,-0.15164481504476018,0.08230885873915054,-1.6310636993050993,-1.7133725580442498,4.891731430722308,-0.19973620155135538,0.11603871430544807,0.38587167127146277,0.04943703479077566,-0.7011471775446233,0.1298197144795768,0.08614736458121522,0.01090458313631601,-4.8,-5.8
1.648,self_right,none,-0.2763486530704775,0.9321566564519372,-5.520700579825884,-0.2409668883160458,-5.10219355393162,1.377610566411224,-0.16273657323125346,0.08434225788598153,-1.6324600812649586,-1.7168023391509402,4.89780644606838,-0.201137070881038,0.11323467132739963,0.38413095900168104,0.055406613203535175,-0.6910284728844164,0.12672304744450807,0.0930429313660746,0.010220904481273344,-4.8,-5.8
1.664,self_right,none,-0.2795877712927682,0.9339219699571537,-5.514586199215358,-0.24337765199008643,-5.096150030534775,1.3776602703227405,-0.17371590305569734,0.08632173339433001,-1.6338515133069818,-1.7201732467013118,4.903849969465225,-0.20244488889316778,0.11033209407602676,0.38214878815785835,0.06153663249227578,-0.6834574781611028,0.1242374004751245,0.09979685079511909,0.009542443827444654,-4.8,-5.8
1.68,self_right,none,-0.28284592767798356,0.9356400326825598,-5.508506988610759,-0.2458278574951876,-5.090141523401282,1.3777966882027353,-0.18462044582222956,0.08825277797246264,-1.6352372131696502,-1.7234899911421129,4.909858476598718,-0.20363477407596137,0.10737892033787946,0.3799506627874507,0.06777215132999892,-0.6782149077441161,0.12220979665227416,0.10635451183960087,0.008871212934334108,-4.8,-5.8
1.696,self_right,none,-0.2861204657244561,0.9373108233289305,-5.502464822527943,-0.2483128001418924,-5.084169973858733,1.378018738441374,-0.19548626124109678,0.09014027078704973,-1.636616732049944,-1.7267570028369938,4.915830026141267,-0.20465862790453387,0.10442441539816555,0.3776353801759908,0.07406917545845809,-0.6752067040094804,0.12059011431307817,0.11266130347077173,0.00820922356144592,-4.8,-5.8
1.712,self_right,none,-0.2894074503039893,0.9389350445114582,-5.496459661729511,-0.25082661414965135,-5.078235416758428,1.3783245613230581,-0.20634623770983976,0.09198881281671775,-1.6379900202891602,-1.7299788331058779,4.921764583241572,-0.20543653622082378,0.10151382390798193,0.37532254990200625,0.08037727981710646,-0.6742398214631374,0.11934848352368987,0.11866261465988406,0.007558487468284241,-4.8,-5.8
1.728,self_right,none,-0.29270140902500524,0.9405140835802546,-5.490489393748192,-0.2533619095663163,-5.072335828915438,1.3787115879278151,-0.2172294242488625,0.09380297643364467,-1.6393574578489878,-1.7331604342826326,4.927664171084562,-0.20587242006349565,0.09868994179977555,0.37314174883244355,0.08664460739091939,-0.6750795759008538,0.11847009530310655,0.12430383437818968,0.006921016414353283,-4.8,-5.8
1.744,self_right,none,-0.2959952204366143,0.942049981202065,-5.484549800237555,-0.255909620635016,-5.066467099461086,1.3791765724028222,-0.22816037173755252,0.09558740070610793,-1.6407198586889975,-1.7363072593951054,4.933532900538914,-0.20586321322556486,0.09599360136315183,0.37122459441478384,0.09281561164112967,-0.6774504022304992,0.11794514175305572,0.12953035159694073,0.0062988221591572125,-4.8,-5.8
1.76,self_right,none,-0.2992801251293721,0.9435453872775169,-5.478634641497092,-0.258458999360088,-5.06062311570991,1.3797156107493798,-0.2391586688685225,0.0973468334460453,-1.6420784509951918,-1.739425284441237,4.93937688429009,-0.20530654329735915,0.09346287971574986,0.3696974212788966,0.09883129599558825,-0.6810480409179306,0.11776522894757421,0.13428755528738945,0.005693916462200201,-4.8,-5.8
1.776,self_right,none,-0.3025458369854442,0.9450034925446699,-5.472735859354895,-0.2609977154534606,-5.05479596702926,1.3803241556900674,-0.2502387092708582,0.09908615839644003,-1.6434348327676496,-1.7425209911640895,4.94520403297074,-0.2041069910045061,0.091131579197062,0.3686738838873556,0.1046303772534192,-0.6855539350940385,0.11792226930278037,0.13852083442078775,0.0051083110829864605,-4.8,-5.8
1.792,self_right,none,-0.305780740425831,0.9464279294485695,-5.4668439005600336,-0.26351203497327913,-5.04897627015614,1.380997032316866,-0.26140977759810147,0.10081043993839484,-1.644790902136859,-1.7456013420752539,4.95102372984386,-0.2021814650241739,0.08902730649372143,0.36824742467881133,0.11015142683898631,-0.6906550498404599,0.11840946452547951,0.14217557796838773,0.004544017781020161,-4.8,-5.8
1.808,self_right,none,-0.3089721608062497,0.9478226395719488,-5.460948160904419,-0.26598705507902637,-5.043153617276071,1.3817284552156832,-0.27267653886158094,0.10252500862758611,-1.6461487621934294,-1.7486737708210156,4.956846382723929,-0.19946377377616936,0.08716938271120933,0.36848372847594113,0.11533579166870168,-0.6960689076900831,0.11922378875234997,0.1451971749014416,0.004003048315805471,-4.8,-5.8
1.824,self_right,none,-0.31210669360612275,0.9491917076699129,-5.455037545936728,-0.26840697263595314,-5.037317143769046,1.382512046037161,-0.2840400090841824,0.10423560655832631,-1.6475106010385425,-1.7517462075968688,4.962682856230954,-0.19590829999206885,0.08556675612275684,0.36941343548067823,0.12013121476858517,-0.7015734557045546,0.12036969553137121,0.14753101419120127,0.0034874144468465995,-4.8,-5.8
1.84,self_right,none,-0.31517057375647356,0.9505391647035982,-5.449101137865658,-0.2707553614057037,-5.031456206240915,1.383340849823332,-0.295499068493905,0.1059486084670648,-1.6488785490733655,-1.7548271575404304,4.968543793759085,-0.19149250939692616,0.0842160646053319,0.37102550444183485,0.12449606943649466,-0.7070407118632014,0.12186385469605164,0.14912248480891893,0.0029991279336477167,-4.8,-5.8
1.856,self_right,none,-0.31815005965122717,0.9518687646034002,-5.443128950038337,-0.2730154271275344,-5.025561153211341,1.3842073486176898,-0.3070525521679256,0.10767133124293417,-1.6502545172498095,-1.7579258484927438,4.974438846788659,-0.18621786842210167,0.0830999937376246,0.3732617392075987,0.12840410419157586,-0.7124725466471452,0.12374072092216194,0.14991697572584664,0.002540200535712993,-4.8,-5.8
1.872,self_right,none,-0.3210354844382401,0.9531877608624012,-5.437100744848477,-0.27518311475079416,-5.019611151931425,1.3850970108564384,-0.31858281092120716,0.10939034360262401,-1.6516427490490313,-1.7610330926516553,4.980388848068575,-0.18033904918830876,0.0824372661875609,0.37676282436620534,0.13065431090263124,-0.7106787216847211,0.12455018436067751,0.02399173501318444,0.002112644012546634,-4.8,-5.8
1.888,self_right,none,-0.3239210436209941,0.9546180521605939,-5.430651844004108,-0.27760631082098164,-5.013213291010181,1.3858145084809774,-0.3266949401191339,0.1104978953543933,-1.653125812911968,-1.7636237082663613,4.986786708989819,-0.18034744892212629,0.08939320613704836,0.4030563027730713,0.09790397707555791,-0.49928322742671494,0.08344069201220883,0.023937045540621503,0.001718470123652807,-4.8,-5.8
1.904,self_right,none,-0.32676747034119535,0.9561041094501028,-5.423922800649253,-0.28001880882982866,-5.006532620306093,1.3866598076860166,-0.3345187237431559,0.11153745869223154,-1.6546718839570946,-1.7662093426493262,4.993467379693907,-0.17790167001257948,0.09287858059430813,0.4205652096784375,0.1038379116394136,-0.4804425629463931,0.08212276135143054,0.02383287935775256,0.0013596906285357074,-4.8,-5.8
1.92,self_right,none,-0.3295165496705897,0.9575973255973493,-5.417111371614624,-0.28229784385219925,-4.999774105340887,1.3874786407219541,-0.3426278682202679,0.11266368081238842,-1.6562359647996658,-1.7688996456120543,5.000225894659113,-0.17181745808714735,0.09332600920290592,0.4257143146643116,0.1046655248318642,-0.49824323911832646,0.0873870756893011,0.0236812482240818,0.0010383172866995113,-4.8,-5.8
1.936,self_right,none,-0.33217069871674154,0.9591156291765925,-5.410167454763682,-0.28448056758379386,-4.992883796573571,1.3882360644208775,-0.3505058460865023,0.11379335597533816,-1.6578291411695465,-1.7716224971448846,5.007116203426429,-0.16588431538449097,0.09489397370269793,0.43399480318383454,0.09987164151566702,-0.4841926363374582,0.08668450624940885,0.023484163899113408,0.0007563618576483941,-4.8,-5.8
1.952,self_right,none,-0.334750557197406,0.9606821150249452,-5.403019389358801,-0.28662742407155584,-4.985785445320026,1.3889180481417793,-0.35760909962424986,0.11483108592348609,-1.6594676621659483,-1.7742987480894343,5.014214554679974,-0.1612411550415281,0.0979053655220375,0.44675408780508363,0.09035856415736164,-0.43649750666903286,0.07963623607827669,0.023243638142351555,0.0005158361008865579,-4.8,-5.8
1.968,self_right,none,-0.3372662982802303,0.9622979247719081,-5.395665975172918,-0.28874643200086075,-4.97847798088709,1.3895362772658062,-0.36397356966962596,0.11578200321221584,-1.66115194873101,-1.776933951943226,5.02152201911291,-0.15723381767652034,0.10098810918518228,0.45958838661768553,0.08167691853431715,-0.39098003687862176,0.0730726575394811,0.02296168271330044,0.00031875177591816775,-4.8,-5.8
1.984,self_right,none,-0.3397211601440549,0.9639567998182362,-5.388133728586843,-0.2908317807839842,-4.970988875345445,1.3900848307931073,-0.36969721717973103,0.11666777214157474,-1.662876126939297,-1.7795438990808718,5.029011124654555,-0.15342886648903578,0.1036796903955098,0.4707654116296327,0.0732712336053491,-0.35160431834517514,0.06765723724077757,0.022640309371464228,0.00016712064224741496,-4.8,-5.8
2.0,self_right,none,-0.3421167689586209,0.9656527643877074,-5.380446523492339,-0.29287672346694554,-4.963342917753936,1.3905604942536007,-0.3748699642363471,0.11750844761943208,-1.664634870295544,-1.7821433179149762,5.036657082246064,-0.14972555091037507,0.1059977855919514,0.4804503184065137,0.0652708442996347,-0.317848768700483,0.06335597861094715,0.02228152987634713,6.29544593784832e-05,-4.8,-5.8
2.016,self_right,none,-0.34445397090105484,0.9673802078081061,-5.372625676465184,-0.2948739773685662,-4.955562342855864,1.3909616601201846,-0.37957905352496424,0.11832350754558907,-1.6664233975265095,-1.7847469050720985,5.044437657144136,-0.14607512140212042,0.10796521377491776,0.48880293919724294,0.05777271293102527,-0.2895326328873865,0.06017665414945268,0.0218873559874533,8.264986815553322e-06,-4.8,-5.8
2.032,self_right,none,-0.3467332034402374,0.9691338177092673,-5.364690522983277,-0.29681596416818096,-4.947667419038836,1.3912878726255202,-0.3839105644168317,0.11913216647110517,-1.6682373527305816,-1.7873695192016867,5.052332580961164,-0.14245203369890827,0.10960061882257528,0.49594709261920567,0.05085402497196159,-0.26657290921495563,0.058136660352090516,0.021459799464286937,8.302427415344377e-05,-4.8,-5.8
2.048,self_right,none,-0.3489942261934538,0.9709957278562761,-5.3563905421411375,-0.29837434122830114,-4.939452144717592,1.3909341963050361,-0.3916883443110821,0.12081724552015152,-1.6701332778787839,-1.7909505233989353,5.060547855282408,-0.1413139220760272,0.11636938418804707,0.5187488026337108,0.037865144937010514,-0.48506870698679666,0.09695842949433336,0.02100087206635222,0.0008775151910812184,-4.8,-5.8
2.064,self_right,none,-0.351098335538464,0.9727923278324337,-5.348310200219298,-0.29984214807917403,-4.931449548145804,1.3906966091328417,-0.39859182245893104,0.12234351823777675,-1.6719780013731294,-1.7943215196109061,5.068550451854196,-0.1315068340631351,0.11228749850985516,0.5050213701149696,0.038725173161172535,-0.4299463536125442,0.08967601317987328,0.02051258555315332,0.0024689858087990285,-4.8,-5.8
2.08,self_right,none,-0.35314376063653136,0.9745698985497024,-5.340224754037345,-0.30140442884705265,-4.923423792490975,1.3907171763731185,-0.40348255526787025,0.12350260789286904,-1.6738235645535247,-1.7973261724463936,5.076576207509025,-0.12783906862921243,0.11109816982929659,0.5053403863720496,0.038654053530655756,-0.3032198993250407,0.07294491975387848,0.019996951684194443,0.00480282509855882,-4.8,-5.8
2.096,self_right,none,-0.35514274790358963,0.9763331527814164,-5.332120209989459,-0.30307730176921316,-4.915359860005409,1.3909620538852334,-0.4063729175785668,0.12428506822001772,-1.6756732831623466,-1.7999583513823643,5.084640139994591,-0.12493670419114218,0.11020338948212423,0.5065340029928466,0.03628328023173112,-0.1775247362408384,0.0549331596381874,0.019455982218979748,0.00782442203161272,-4.8,-5.8
2.112,self_right,none,-0.35710274004976733,0.9780824374258994,-5.324001981794806,-0.30486183468561745,-4.907263589266911,1.3914120434217214,-0.4073627923295214,0.12470608679684923,-1.677526060674683,-1.8022321474715322,5.092736410733089,-0.12249950913610796,0.10933029028018594,0.5073892621658173,0.03331082335173375,-0.05818113060044988,0.03744344676359901,0.018891688917013448,0.011479165579212953,-4.8,-5.8
2.128,self_right,none,-0.3590300707305341,0.979817340062659,-5.31588058666368,-0.306754989685925,-4.899146479706043,1.3920490510219792,-0.4065668627610631,0.12478809473463046,-1.6793796498009212,-1.8041677445355517,5.100853520293957,-0.12045816754792377,0.10843141479747671,0.5075871956954027,0.030087663914936107,0.053908133341642725,0.020884424102950144,0.0183060835377997,0.01571244471261116,-4.8,-5.8
2.144,self_right,none,-0.36092973464675177,0.9815370924062294,-5.307768633611629,-0.308750643633704,-4.891022496903618,1.3928542482604147,-0.4041045833413368,0.12455775926629395,-1.6812313148071811,-1.805789074073475,5.108977503096382,-0.1187289947636045,0.10748452147315626,0.5069970657531794,0.02675152646324463,0.15844891589860477,0.0054485025912494635,0.01770117784084269,0.020469648403060054,-4.8,-5.8
2.16,self_right,none,-0.362805008620257,0.9832406428547118,-5.299679708197837,-0.3108396264437706,-4.882906869525195,1.393808232269102,-0.4000981675457678,0.12404497230357163,-1.6830780676885426,-1.8071230399921143,5.117093130474805,-0.11720462334407601,0.10647190303014663,0.505557838362009,0.023400069495716307,0.25527203908378765,-0.008715106811376135,0.017078983585646617,0.02569616562181121,-4.8,-5.8
2.176,self_right,none,-0.3646536459699394,0.9849230217938433,-5.291639589569498,-0.31299722123376383,-4.874828344779394,1.3948954096152768,-0.39479762215865155,0.12330369753047356,-1.6849140716089088,-1.8082177691393824,5.125171655220606,-0.11553983435514896,0.1051486836957177,0.5025074142711332,0.021306738767341456,0.3364832786481979,-0.020028962887885308,0.01644151253171566,0.03133738534011687,-4.8,-5.8
2.192,self_right,none,-0.36646949173132465,0.9865778321227008,-5.283677871417932,-0.3151911743995989,-4.8668199409768444,1.396101442117371,-0.38849916489280806,0.12239660538947222,-1.686732536450154,-1.8091291418396263,5.1331800590231556,-0.1134903600865786,0.10342564555359199,0.49760738447283154,0.02090583649537827,0.399225510391825,-0.027920757623426513,0.015790776438553977,0.03733869652922935,-4.8,-5.8
2.208,self_right,none,-0.36824919083155205,0.9882032890807501,-5.275808742457828,-0.31740551067890294,-4.8588975766340585,1.3974056565408157,-0.38130629729543625,0.12135402143750382,-1.6885301651229234,-1.8098841865604272,5.1411024233659415,-0.11123119376421244,0.10159105987808238,0.4918205600065223,0.02033530808347472,0.45540643418552657,-0.03455554199978195,0.015128787065665785,0.043645488160400044,-4.8,-5.8
2.224,self_right,none,-0.3699882840803895,0.989797575394745,-5.268045600856328,-0.3196223683931841,-4.851076447876172,1.3987902932275111,-0.37332726327040305,0.12020813898316846,-1.690303803171534,-1.8105119421547025,5.148923552123828,-0.10869332805233947,0.09964289462468473,0.48519635009372697,0.0197805735933736,0.5047528067422209,-0.039733772108054705,0.01445755617255524,0.05020314920488196,-4.8,-5.8
2.24,cruise,none,-0.371681128176574,0.9913594977081763,-5.260399355052033,-0.32182380190525756,-4.8433690839480334,1.400240089819293,-0.3646604335290755,0.11898849940511329,-1.692050812950148,-1.8110393123552613,5.1566309160519666,-0.10580275601153187,0.09762014458946079,0.47789036276848434,0.019280618097077346,0.5478945067277001,-0.0435453788239695,0.09186063679151034,0.37971379089284324,-4.8,-5.8
2.256,self_right,none,-0.37380639319475345,0.9906855144143634,-5.253083145247273,-0.3246252471466037,-4.835972590509814,1.4056107778919955,-0.35454011968990023,0.11736723821249963,-1.6937368682283453,-1.811104106440845,5.164027409490186,-0.13282906363621697,-0.04212395586330954,0.4572631127974982,0.23743442298891046,0.6651583638544317,0.01679454275434219,0.013095416863683882,0.0638526354187859,-4.8,-5.8
2.272,self_right,none,-0.3757316507436937,0.9911187258071376,-5.245591569517726,-0.3271311432669526,-4.828412961877063,1.4088862274630605,-0.3450596307862076,0.11597530240931758,-1.6954572889720663,-1.8114325913813838,5.171587038122937,-0.12032859680876402,0.02707571204838577,0.46822348309665945,0.12203805967340553,0.6108940487943398,-0.01683710068770261,0.012408531966931409,0.0708352385307126,-4.8,-5.8
2.288,self_right,none,-0.37744863523729816,0.9920715032134549,-5.238276300401451,-0.3293685112929585,-4.821037397994812,1.411114291110724,-0.33532079088421124,0.11472800484264406,-1.6971333443767096,-1.8118613492193536,5.178962602005188,-0.10731153085028047,0.0595485878948384,0.457204319767182,0.060345798634005174,0.6197464472568942,-0.031491155963677936,0.011720452587973346,0.07785026694095783,-4.8,-5.8
2.304,self_right,none,-0.37902553044278464,0.9932868201488813,-5.231058281938212,-0.33140358975333484,-4.813766836105722,1.4128640821584904,-0.3255745598022027,0.11362994241790653,-1.6987843361811577,-1.8124142785990642,5.186233163894278,-0.09855595034290685,0.0759573084641473,0.45112615395244593,0.033372387611721475,0.6169636729043724,-0.03314418510693046,0.011033190486313856,0.08484310962077472,-4.8,-5.8
2.32,self_right,none,-0.3805037306556763,0.9946374117629476,-5.223919458600399,-0.33328879863696753,-4.8065817653656895,1.4143480674726423,-0.3159278417508279,0.11265463825123642,-1.7004153213390496,-1.813069959590286,5.1934182346343105,-0.09238751330572625,0.08441197587914763,0.44617645861334154,0.01938621766593185,0.609007128948039,-0.03171427832614239,0.010348757421457105,0.09175915554141459,-4.8,-5.8
